{
  "type": "FeatureCollection",
  "features": [
    {
      "type": "Feature",
      "properties": {
        "location": "Hospital e Maternidade Jesus Maria José",
        "latitude": "-39.024525",
        "longitude": "-4.966990",
        "discipline": "Banco de Leite Humano",
        "title": "BLH do Hospital e Maternidade Jesus Maria José"
      },
      "geometry": {
        "type": "Point",
        "coordinates": [
          -39.024525,
          -4.966990
        ]
      }
    },
    {
      "type": "Feature",
      "properties": {
        "location": "Hospital Geral de Fortaleza",
        "latitude": "-38.476035",
        "longitude": "-3.739328",
        "discipline": "Banco de Leite Humano",
        "title": "BLH do Hospital Geral de Fortaleza"
      },
      "geometry": {
        "type": "Point",
        "coordinates": [
          -38.476035,
          -3.739328
        ]
      }
    },
    {
      "type": "Feature",
      "properties": {
        "location": "ospital Geral Dr. César Cals",
        "latitude": "-38.533895",
        "longitude": "-3.726270",
        "discipline": "Banco de Leite Humano",
        "title": "BLH do Hospital Geral Dr. César Cals"
      },
      "geometry": {
        "type": "Point",
        "coordinates": [
          -38.533895,
          -3.726270
        ]
      }
    },
    {
      "type": "Feature",
      "properties": {
        "location": "Hospital Infantil Albert Sabin",
        "latitude": "-38.531775",
        "longitude": "-3.762770",
        "discipline": "Banco de Leite Humano",
        "title": "BLH do Hospital Albert Sabin"
      },
      "geometry": {
        "type": "Point",
        "coordinates": [
          -38.531775,
          -3.762770
        ]
      }
    },
    {
      "type": "Feature",
      "properties": {
        "location": "Hospital Maternidade São Vicente de Paulo",
        "latitude": "-39.302724",
        "longitude": "-7.311888",
        "discipline": "Banco de Leite Humano",
        "title": "BLH do Hospital Maternidade São Vicente de Paulo"
      },
      "geometry": {
        "type": "Point",
        "coordinates": [
          -39.302724,
          -7.311888
        ]
      }
    },
    {
      "type": "Feature",
      "properties": {
        "location": "Hospital Municipal Dr. João Elísio de Holanda",
        "latitude": "-38.623573",
        "longitude": "-3.878214",
        "discipline": "Banco de Leite Humano",
        "title": "BLH do Hospital Municipal Dr. João Elísio de Holanda"
      },
      "geometry": {
        "type": "Point",
        "coordinates": [
          -38.623573,
          -3.878214
        ]
      }
    },
    {
      "type": "Feature",
      "properties": {
        "location": "Hospital Municipal São Lucas",
        "latitude": "-39.310265",
        "longitude": "-7.205667",
        "discipline": "Banco de Leite Humano",
        "title": "BLH do Hospital Municipal São Lucas"
      },
      "geometry": {
        "type": "Point",
        "coordinates": [
          -39.310265,
          -7.205667
        ]
      }
    },
    {
      "type": "Feature",
      "properties": {
        "location": "Hospital Regional Norte",
        "latitude": "-40.368399",
        "longitude": "-3.676531",
        "discipline": "Banco de Leite Humano",
        "title": "BLH do Hospital Regional Norte"
      },
      "geometry": {
        "type": "Point",
        "coordinates": [
          -40.368399,
          -3.676531
        ]
      }
    },
    {
      "type": "Feature",
      "properties": {
        "location": "Maternidade Escola Assis Chateaubriand",
        "latitude": "-38.552390",
        "longitude": "-3.748240",
        "discipline": "Banco de Leite Humano",
        "title": "BLH do Maternidade Escola Assis Chateaubriand"
      },
      "geometry": {
        "type": "Point",
        "coordinates": [
          -38.552390,
          -3.748240
        ]
      }
    },
    {
      "type": "Feature",
      "properties": {
        "location": "Posto de Saúde Ronaldo de Albuquerque Ribeiro",
        "latitude": "-38.596807",
        "longitude": "-3.767835",
        "discipline": "Ponto de Coleta",
        "title": "PCLH do Posto de Saúde Ronaldo de Albuquerque Ribeiro"
      },
      "geometry": {
        "type": "Point",
        "coordinates": [
          -38.596807,
          -3.767835
        ]
      }
    },
    {
      "type": "Feature",
      "properties": {
        "location": "UAPS Rigoberto Romero",
        "latitude": "-38.473381",
        "longitude": "-3.751827",
        "discipline": "Ponto de Coleta",
        "title": "PCLH da UAPS Rigoberto Romero"
      },
      "geometry": {
        "type": "Point",
        "coordinates": [
          -38.473381,
          -3.751827
        ]
      }
    },
    {
      "type": "Feature",
      "properties": {
        "location": "Hospital Distrital Gonzaga Mota Barra do Ceará",
        "latitude": "-38.597611",
        "longitude": "-3.715230",
        "discipline": "Ponto de Coleta",
        "title": "PCLH do Hospital Distrital Gonzaga Mota Barra do Ceará"
      },
      "geometry": {
        "type": "Point",
        "coordinates": [
          -38.597611,
          -3.715230
        ]
      }
    },
    {
      "type": "Feature",
      "properties": {
        "location": "Hospital Regional Unimed",
        "latitude": "-38.5206528",
        "longitude": "-3.756228",
        "discipline": "Ponto de Coleta",
        "title": "PCLH do Hospital Regional Unimed"
      },
      "geometry": {
        "type": "Point",
        "coordinates": [
          -38.5206528,
          -3.756228
        ]
      }
    },
    {
      "type": "Feature",
      "properties": {
        "location": "Hospital São Camilo Cura d´Ars",
        "latitude": "-38.516077",
        "longitude": "-3.728566",
        "discipline": "Ponto de Coleta",
        "title": "PCLH do Hospital São Camilo Cura d´Ars"
      },
      "geometry": {
        "type": "Point",
        "coordinates": [
          -38.516077,
          -3.728566
        ]
      }
    },
    {
      "type": "Feature",
      "properties": {
        "location": "Hospital Nossa Senhora da Conceição",
        "latitude": "-38.616189",
        "longitude": "-3.770490",
       "discipline": "Ponto de Coleta",
        "title": "PLCH do Hospital Nossa Senhora da Conceição"
      },
      "geometry": {
        "type": "Point",
        "coordinates": [
          -38.616189,
          -3.770490
        ]
      }
    },
    {
      "type": "Feature",
      "properties": {
        "location": "Hospital Municipal Dr. Amadeu Sá",
        "latitude": "-38.469886",
        "longitude": "-3.870770",
        "discipline": "Ponto de Coleta",
        "title": "PCLH do Hospital Municipal Dr. Amadeu Sá"
      },
      "geometry": {
        "type": "Point",
        "coordinates": [
          -38.469886,
          -3.870770
        ]
      }
    },
    {
      "type": "Feature",
      "properties": {
        "location": "Hospital e Maternidade Venâncio Raimundo de Souza",
        "latitude": "-38.487278",
        "longitude": "-4.097812",
        "discipline": "Ponto de Coleta",
        "title": "PCLH do Hospital e Maternidade Venâncio Raimundo de Souza"
      },
      "geometry": {
        "type": "Point",
        "coordinates": [
          -38.487278,
          -4.097812
        ]
      }
    },
    {
      "type": "Feature",
      "properties": {
        "location": "Posto de Saúde Dom Aloísio Lorscheider",
        "latitude": "-38.554388",
        "longitude": "-3.795223",
        "discipline": "Ponto de Coleta",
        "title": "PCLH do Posto de Saúde Dom Aloísio Lorscheider"
      },
      "geometry": {
        "type": "Point",
        "coordinates": [
          -38.554388,
          -3.795223
        ]
      }
    },
    {
      "type": "Feature",
      "properties": {
        "location": "Unifametro - Centro Universitário",
        "latitude": "-38.540372",
        "longitude": "-3.725446",
        "discipline": "Ponto de Coleta",
        "title": "PCLH do Unifametro - Centro Universitário"
      },
      "geometry": {
        "type": "Point",
        "coordinates": [
          -38.540372,
          -3.725446
        ]
      }
    },
    {
      "type": "Feature",
      "properties": {
        "location": "Hospital Distrital Gonzaga Mota José Walter",
        "latitude": "-38.556793",
        "longitude": "-3.830855",
        "discipline": "Ponto de Coleta",
        "title": "PCLH do Hospital Distrital Gonzaga Mota José Walter"
      },
      "geometry": {
        "type": "Point",
        "coordinates": [
          -38.556793,
          -3.830855
        ]
      }
    },
    {
      "type": "Feature",
      "properties": {
        "location": "Posto de Saúde Luis Franklin Pereira",
        "latitude": "-38.484484",
        "longitude": "-3.837517",
        "discipline": "Ponto de Coleta",
        "title": "PCLH do Posto de Saúde Luis Franklin Pereira"
      },
      "geometry": {
        "type": "Point",
        "coordinates": [
          -38.484484,
          -3.837517
        ]
      }
    },
    {
      "type": "Feature",
      "properties": {
        "location": "UBS - Dr. Roberto da Silva Bruno",
        "latitude": "-38.527830",
        "longitude": "-3.760050",
        "discipline": "Ponto de Coleta",
        "title": "PCLH do UBS - Dr. Roberto da Silva Bruno"
      },
      "geometry": {
        "type": "Point",
        "coordinates": [
          -38.527830,
          -3.760050
        ]
      }
    },
    {
      "type": "Feature",
      "properties": {
        "location": "Hospital Santa Luisa de Marillac",
        "latitude": "-37.770462",
        "longitude": "-4.562194",
        "discipline": "Ponto de Coleta",
        "title": "PCLH do Hospital Santa Luisa de Marillac"
      },
      "geometry": {
        "type": "Point",
        "coordinates": [
          -37.770462,
          -4.562194
        ]
      }
    },
    {
      "type": "Feature",
      "properties": {
        "location": "UNIFOR - Universidade de Fortaleza",
        "latitude": "-38.478059",
        "longitude": "-3.768785",
        "discipline": "Ponto de Coleta",
        "title": "PCLH do NAMI/UNIFOR - Universidade de Fortaleza"
      },
      "geometry": {
        "type": "Point",
        "coordinates": [
          -38.478059,
          -3.768785
        ]
      }
    },
    {
      "type": "Feature",
      "properties": {
        "location": "Hospital São Francisco de Canindé",
        "latitude": "-39.313678",
        "longitude": "-4.362121",
        "discipline": "Ponto de Coleta",
        "title": "PCLH do Hospital São Francisco de Canindé"
      },
      "geometry": {
        "type": "Point",
        "coordinates": [
          -39.313678,
          -4.362121
        ]
      }
    },
    {
      "type": "Feature",
      "properties": {
        "location": "Hospital Distrital Gonzaga Mota de Messejana",
        "latitude": "-39.313678",
        "longitude": "-4.362121",
        "discipline": "Ponto de Coleta",
        "title": "PCLH do Hospital Distrital Gonzaga Mota de Messejana"
      },
      "geometry": {
        "type": "Point",
        "coordinates": [
          -39.313678,
          -4.362121
        ]
      }
    },
    {
      "type": "Feature",
      "properties": {
        "location": "Hospital e Maternidade São Vicente de Paulo",
        "latitude": "-39.587636",
        "longitude": "-3.499750",
        "discipline": "Ponto de Coleta",
        "title": "PCLH do Hospital e Maternidade São Vicente de Paulo"
      },
      "geometry": {
        "type": "Point",
        "coordinates": [
          -39.587636,
          -3.499750
        ]
      }
    },
    {
      "type": "Feature",
      "properties": {
        "location": "Hospital e Maternidade José Martiniano de Alencar",
        "latitude": "-38.537827",
        "longitude": "-3.734186",
        "discipline": "Ponto de Coleta",
        "title": "PCLH do Hospital e Maternidade José Martiniano de Alencar"
      },
      "geometry": {
        "type": "Point",
        "coordinates": [
          -38.537827,
          -3.734186
        ]
      }
    },
    {
      "type": "Feature",
      "properties": {
        "location": "Hospital e Maternidade Dra. Zilda Arns Neumann (Hospital da Mulher de Fortaleza)",
        "latitude": "-38.574050",
        "longitude": "-3.762910",
        "discipline": "Ponto de Coleta",
        "title": "PCLH do Hospital e Maternidade Dra. Zilda Arns Neumann (Hospital da Mulher de Fortaleza)"
      },
      "geometry": {
        "type": "Point",
        "coordinates": [
          -38.574050,
          -3.762910
        ]
      }
    },
    {
      "type": "Feature",
      "properties": {
        "location": "Hospital Gênesis",
        "latitude": "-38.513396",
        "longitude": "-3.731836",
        "discipline": "Ponto de Coleta",
        "title": "PCLH do Hospital Gênesis"
      },
      "geometry": {
        "type": "Point",
        "coordinates": [
          -38.513396,
          -3.731836
        ]
      }
    },
    {
      "type": "Feature",
      "properties": {
        "location": "Hospital Eugênia Pinheiro Hapvida",
        "latitude": "-38.519940",
        "longitude": "-3.735143",
        "discipline": "Ponto de Coleta",
        "title": "PCLH do Hospital Eugênia Pinheiro Hapvida"
      },
      "geometry": {
        "type": "Point",
        "coordinates": [
          -38.519940,
          -3.735143
        ]
      }
    },
    {
      "type": "Feature",
      "properties": {
        "location": "Hospital Geral Dr Waldemar Alcântara",
        "latitude": "-38.480108",
        "longitude": "-3.832231",
        "discipline": "Ponto de Coleta",
        "title": "PCLH do Hospital Geral Dr Waldemar Alcântara"
      },
      "geometry": {
        "type": "Point",
        "coordinates": [
          -38.480108,
          -3.832231
        ]
      }
    },
    {
      "type": "Feature",
      "properties": {
        "location": "Hospital e Maternidade José Pinto do Carmo",
        "latitude": "-38.882411",
        "longitude": "-4.327858",
        "discipline": "Ponto de Coleta",
        "title": "PCLH do Hospital e Maternidade José Pinto do Carmo"
      },
      "geometry": {
        "type": "Point",
        "coordinates": [
          -38.882411,
          -4.327858
        ]
      }
    },
    {
      "type": "Feature",
      "properties": {
        "location": "Santa Casa de Misericórdia de Sobral - SCMS",
        "latitude": "-40.358902",
        "longitude": "-3.693552",
        "discipline": "Ponto de Coleta",
        "title": "PCLH da Santa Casa de Misericórdia de Sobral - SCMS"
      },
      "geometry": {
        "type": "Point",
        "coordinates": [
          -40.358902,
          -3.693552
        ]
      }
    }
  ]
}
